{"nodes":[{"idx":1,"name":"Visalia, CA","long":293505.1621,"lat":4019008.6921,"state":"CA","weight_viz":164315581},{"idx":2,"name":"Reedley--Dinuba, CA","long":283089.9095,"lat":4050353.9337,"state":"CA","weight_viz":118677780},{"idx":3,"name":"Merced, CA","long":187560.0723,"lat":4137847.9758,"state":"CA","weight_viz":122971181},{"idx":4,"name":"Fairfield, CA","long":59325.6227,"lat":4246584.4805,"state":"CA","weight_viz":102452323},{"idx":5,"name":"Gardnerville Ranchos, NV","long":262468.3702,"lat":4311483.7221,"state":"NV","weight_viz":127019660},{"idx":6,"name":"Woodland, CA","long":85686.9975,"lat":4291295.0019,"state":"CA","weight_viz":31602159},{"idx":7,"name":"Coalinga, CA","long":198185.5079,"lat":4005415.2686,"state":"CA","weight_viz":61241524},{"idx":8,"name":"Earlimart, CA","long":294405.1724,"lat":3977899.0545,"state":"CA","weight_viz":52146784},{"idx":9,"name":"Discovery Bay, CA","long":94465.8441,"lat":4204925.418,"state":"CA","weight_viz":41666104},{"idx":10,"name":"Lindsay, CA","long":311818.2769,"lat":4009129.638,"state":"CA","weight_viz":79426348},{"idx":11,"name":"Lake Wildwood, CA","long":137706.3177,"lat":4350052.2464,"state":"CA","weight_viz":64525064},{"idx":12,"name":"Sierra Vista, AZ","long":1137999.8567,"lat":3508614.5323,"state":"AZ","weight_viz":78401605},{"idx":13,"name":"Mountain Home AFB, ID","long":592340.2452,"lat":4766618.1117,"state":"ID","weight_viz":79186880},{"idx":14,"name":"Klamath Falls--Altamont, OR","long":107375.71,"lat":4683751.8172,"state":"OR","weight_viz":226818252},{"idx":15,"name":"Blackfoot, ID","long":875007.5643,"lat":4793415.4602,"state":"ID","weight_viz":128547332},{"idx":16,"name":"Preston, ID","long":924367.0781,"lat":4672949.6092,"state":"ID","weight_viz":31014220},{"idx":17,"name":"Redmond, OR","long":166401.2358,"lat":4910825.2208,"state":"OR","weight_viz":140878960},{"idx":18,"name":"Star, ID","long":540939.3031,"lat":4838358.3295,"state":"ID","weight_viz":34115540},{"idx":19,"name":"Emmett, ID","long":541050.4784,"lat":4858439.4226,"state":"ID","weight_viz":58235580},{"idx":20,"name":"Ketchum, ID","long":711854.6781,"lat":4839902.0882,"state":"ID","weight_viz":35886844},{"idx":21,"name":"Pocatello, ID","long":871855.6634,"lat":4757908.1749,"state":"ID","weight_viz":80252212},{"idx":22,"name":"Lancaster--Palmdale, CA","long":397144.5348,"lat":3832092.4109,"state":"CA","weight_viz":299220609},{"idx":23,"name":"Stayton, OR","long":41656.4722,"lat":4978338.3137,"state":"OR","weight_viz":34576108},{"idx":24,"name":"Woodland, WA","long":54477.7388,"lat":5100719.4039,"state":"WA","weight_viz":35991448},{"idx":25,"name":"Longview, WA--OR","long":40772.5888,"lat":5127205.1488,"state":"OR","weight_viz":85226309},{"idx":26,"name":"Sandy, OR","long":87806.8572,"lat":5040657.2422,"state":"OR","weight_viz":32496244},{"idx":27,"name":"Corvallis, OR","long":800.2342,"lat":4954978.8548,"state":"OR","weight_viz":55058271},{"idx":28,"name":"Florence, OR","long":-69864.7801,"lat":4895942.8807,"state":"OR","weight_viz":75142388},{"idx":29,"name":"Veneta, OR","long":-8002.9303,"lat":4897254.4301,"state":"OR","weight_viz":42784224},{"idx":30,"name":"Cottage Grove, OR","long":12220.2032,"lat":4866444.0939,"state":"OR","weight_viz":54480236},{"idx":31,"name":"Albany, OR","long":16815.5819,"lat":4960103.2389,"state":"OR","weight_viz":61948336},{"idx":32,"name":"Waldport, OR","long":-63081.5983,"lat":4943326.769,"state":"OR","weight_viz":36117760},{"idx":33,"name":"Dallas, OR","long":1999.8371,"lat":4993675.7665,"state":"OR","weight_viz":55133300},{"idx":34,"name":"Tri-City--Myrtle Creek, OR","long":-14804.8426,"lat":4779300.8811,"state":"OR","weight_viz":50595220},{"idx":35,"name":"Dixon, CA","long":77898.9902,"lat":4266220.7262,"state":"CA","weight_viz":64366544},{"idx":36,"name":"Turlock, CA","long":162464.1959,"lat":4154223.3093,"state":"CA","weight_viz":66815666},{"idx":37,"name":"Lake of the Pines, CA","long":150852.4706,"lat":4325840.1327,"state":"CA","weight_viz":79557232},{"idx":38,"name":"Fernley, NV","long":308615.2246,"lat":4385519.5244,"state":"NV","weight_viz":106780784},{"idx":39,"name":"Oxnard, CA","long":297051.0293,"lat":3792197.744,"state":"CA","weight_viz":218825133},{"idx":40,"name":"Thousand Oaks, CA","long":328559.9111,"lat":3785375.4354,"state":"CA","weight_viz":221600714},{"idx":41,"name":"Lake Montezuma, AZ","long":978672.9515,"lat":3845528.9056,"state":"AZ","weight_viz":29331976},{"idx":42,"name":"Sedona, AZ","long":977003.4521,"lat":3870146.4555,"state":"AZ","weight_viz":48412024},{"idx":43,"name":"Avondale--Goodyear, AZ","long":927646.9306,"lat":3713104.6008,"state":"AZ","weight_viz":227519034},{"idx":44,"name":"Estrella, AZ","long":922646.6361,"lat":3697694.1329,"state":"AZ","weight_viz":75493420},{"idx":45,"name":"Crescent City, CA","long":-97437.5739,"lat":4650785.537,"state":"CA","weight_viz":123048540},{"idx":46,"name":"The Dalles, OR--WA","long":173596.1726,"lat":5058753.9852,"state":"WA","weight_viz":112933668},{"idx":47,"name":"Sheridan, OR","long":-5423.5044,"lat":5013246.7372,"state":"OR","weight_viz":33342516},{"idx":48,"name":"Molalla, OR","long":61119.1665,"lat":5015568.6711,"state":"OR","weight_viz":37758656},{"idx":49,"name":"Coquille, OR","long":-83812.5927,"lat":4805755.5264,"state":"OR","weight_viz":37038072},{"idx":50,"name":"Sweet Home, OR","long":45162.6933,"lat":4932606.1835,"state":"OR","weight_viz":63879804},{"idx":51,"name":"St. Helena, CA","long":23014.5279,"lat":4276366.7778,"state":"CA","weight_viz":64268544},{"idx":52,"name":"Chowchilla, CA","long":211394.277,"lat":4112547.3362,"state":"CA","weight_viz":46751148},{"idx":53,"name":"Sequim, WA","long":43171.1879,"lat":5344975.857,"state":"WA","weight_viz":253414988},{"idx":54,"name":"Snoqualmie, WA","long":138242.7866,"lat":5272382.9215,"state":"WA","weight_viz":123698336},{"idx":55,"name":"Indianola, WA","long":86818.8563,"lat":5306001.3581,"state":"WA","weight_viz":103428816},{"idx":56,"name":"Camano, WA","long":93148.764,"lat":5348427.484,"state":"WA","weight_viz":68734768},{"idx":57,"name":"Oak Harbor, WA","long":81230.1859,"lat":5366445.3586,"state":"WA","weight_viz":310898252},{"idx":58,"name":"Belfair, WA","long":58521.3191,"lat":5271665.1846,"state":"WA","weight_viz":30943408},{"idx":59,"name":"Olympia--Lacey, WA","long":54598.2372,"lat":5225850.7265,"state":"WA","weight_viz":273497769},{"idx":60,"name":"Bremerton, WA","long":77271.3918,"lat":5288850.3337,"state":"WA","weight_viz":353527323},{"idx":61,"name":"Mount Vernon, WA","long":108471.8282,"lat":5379795.6861,"state":"WA","weight_viz":89178920},{"idx":62,"name":"Port Hadlock-Irondale, WA","long":69389.5867,"lat":5337277.317,"state":"WA","weight_viz":39824680},{"idx":63,"name":"Centralia, WA","long":42982.8402,"lat":5192475.5293,"state":"WA","weight_viz":327135052},{"idx":64,"name":"Morro Bay--Los Osos, CA","long":150651.3119,"lat":3919146.6559,"state":"CA","weight_viz":123747244},{"idx":65,"name":"Cambria, CA","long":129094.5952,"lat":3942776.5266,"state":"CA","weight_viz":36976128},{"idx":66,"name":"Camarillo, CA","long":312659.3886,"lat":3789622.4942,"state":"CA","weight_viz":56939406},{"idx":67,"name":"Simi Valley, CA","long":339221.4082,"lat":3793301.5468,"state":"CA","weight_viz":81458170},{"idx":68,"name":"Santa Paula, CA","long":309743.5866,"lat":3803356.8308,"state":"CA","weight_viz":45527872},{"idx":69,"name":"Lake Los Angeles, CA","long":423391.1321,"lat":3830535.411,"state":"CA","weight_viz":67149664},{"idx":70,"name":"Santa Barbara, CA","long":249662.9307,"lat":3812960.7452,"state":"CA","weight_viz":144617575},{"idx":71,"name":"Santa Clarita, CA","long":359319.4604,"lat":3810638.6601,"state":"CA","weight_viz":198796747},{"idx":72,"name":"Madras, OR","long":171833.4448,"lat":4949232.1581,"state":"OR","weight_viz":55183052},{"idx":73,"name":"Prineville, OR","long":193392.0006,"lat":4913510.6822,"state":"OR","weight_viz":65660136},{"idx":74,"name":"Granite Falls, WA","long":130202.4763,"lat":5339341.9222,"state":"WA","weight_viz":49081668},{"idx":75,"name":"Seattle, WA","long":102551.2012,"lat":5270722.0316,"state":"WA","weight_viz":2614784972},{"idx":76,"name":"Yelm, WA","long":75581.0823,"lat":5214791.4922,"state":"WA","weight_viz":81515564},{"idx":77,"name":"Anacortes, WA","long":84189.0829,"lat":5385714.8276,"state":"WA","weight_viz":98305048},{"idx":78,"name":"Sultan, WA","long":143466.4453,"lat":5312374.9346,"state":"WA","weight_viz":43451752},{"idx":79,"name":"Shelton, WA","long":37974.8113,"lat":5248758.403,"state":"WA","weight_viz":188832944},{"idx":80,"name":"Marysville, WA","long":116527.1406,"lat":5334970.7129,"state":"WA","weight_viz":211943232},{"idx":81,"name":"Ocean Park, WA","long":-40800.8482,"lat":5172625.3464,"state":"WA","weight_viz":56376816},{"idx":82,"name":"Bellingham, WA","long":97599.4048,"lat":5416846.662,"state":"WA","weight_viz":124373258},{"idx":83,"name":"Aberdeen, WA","long":-17276.2473,"lat":5224947.6042,"state":"WA","weight_viz":160309856},{"idx":84,"name":"Lynden, WA","long":99555.713,"lat":5433742.6589,"state":"WA","weight_viz":96671916},{"idx":85,"name":"Port Townsend, WA","long":69455.5839,"lat":5345652.7903,"state":"WA","weight_viz":49502620},{"idx":86,"name":"Port Angeles, WA","long":21729.3596,"lat":5348430.9584,"state":"WA","weight_viz":161410332},{"idx":87,"name":"Everson, WA","long":108126.2196,"lat":5431431.5122,"state":"WA","weight_viz":31544548},{"idx":88,"name":"Montesano--Elma, WA","long":6523.7335,"lat":5225288.6012,"state":"WA","weight_viz":57331252},{"idx":89,"name":"Bozeman, MT","long":962762.6192,"lat":5076248.4971,"state":"MT","weight_viz":201820924},{"idx":90,"name":"Butte-Silver Bow, MT","long":847262.5304,"lat":5101998.8295,"state":"MT","weight_viz":171012852},{"idx":91,"name":"Corcoran, CA","long":269210.8145,"lat":3996444.7708,"state":"CA","weight_viz":67826552},{"idx":92,"name":"Manteca, CA","long":129653.0471,"lat":4190657.6817,"state":"CA","weight_viz":56378732},{"idx":93,"name":"Antioch, CA","long":79957.2116,"lat":4215660.7205,"state":"CA","weight_viz":209027859},{"idx":94,"name":"Monmouth--Independence, OR","long":9159.2411,"lat":4985327.2058,"state":"OR","weight_viz":55524784},{"idx":95,"name":"Brookings, OR","long":-101655.0746,"lat":4681251.7273,"state":"OR","weight_viz":72329708},{"idx":96,"name":"Coos Bay, OR","long":-86822.8326,"lat":4828552.9173,"state":"OR","weight_viz":170738976},{"idx":97,"name":"Estacada, OR","long":81933.8972,"lat":5030132.3463,"state":"OR","weight_viz":29486428},{"idx":98,"name":"Eugene, OR","long":13287.769,"lat":4897062.5805,"state":"OR","weight_viz":224019030},{"idx":99,"name":"Roseburg, OR","long":-17252.736,"lat":4803224.5064,"state":"OR","weight_viz":199700332},{"idx":100,"name":"Kalama, WA","long":48076.0779,"lat":5111804.9475,"state":"WA","weight_viz":50686984},{"idx":101,"name":"Portland, OR--WA","long":58658.3172,"lat":5056287.0982,"state":"WA","weight_viz":1358123751},{"idx":102,"name":"Salem, OR","long":25740.9702,"lat":4993336.1686,"state":"OR","weight_viz":196631421},{"idx":103,"name":"Grants Pass, OR","long":-20019.6575,"lat":4716895.3021,"state":"OR","weight_viz":70529948},{"idx":104,"name":"Astoria, OR","long":-29726.7404,"lat":5136350.599,"state":"OR","weight_viz":94317968},{"idx":105,"name":"Newberg, OR","long":31642.0017,"lat":5033690.3807,"state":"OR","weight_viz":102459824},{"idx":106,"name":"Hood River, OR--WA","long":147921.1913,"lat":5071396.4591,"state":"WA","weight_viz":108397420},{"idx":107,"name":"Newport, OR","long":-59550.0762,"lat":4966028.9931,"state":"OR","weight_viz":82680016},{"idx":108,"name":"Woodburn, OR","long":39990.4008,"lat":5016667.7664,"state":"OR","weight_viz":120718744},{"idx":109,"name":"Orland, CA","long":54677.9412,"lat":4412286.9564,"state":"CA","weight_viz":60642972},{"idx":110,"name":"Mount Shasta--Weed, CA","long":52840.5018,"lat":4591331.5651,"state":"CA","weight_viz":75737924},{"idx":111,"name":"Carlton, OR","long":16126.2659,"lat":5036738.7872,"state":"OR","weight_viz":39147396},{"idx":112,"name":"Creswell, OR","long":17059.3863,"lat":4879697.1202,"state":"OR","weight_viz":37237720},{"idx":113,"name":"McMinnville, OR","long":15190.8497,"lat":5025290.4615,"state":"OR","weight_viz":152479480},{"idx":114,"name":"Canby, OR","long":53653.6812,"lat":5028192.7602,"state":"OR","weight_viz":51667168},{"idx":115,"name":"Shafter, CA","long":293380.8872,"lat":3930471.3264,"state":"CA","weight_viz":39799076},{"idx":116,"name":"Oakhurst, CA","long":265958.0895,"lat":4134416.4153,"state":"CA","weight_viz":38892072},{"idx":117,"name":"Carmel Valley Village, CA","long":72261.0899,"lat":4050346.9899,"state":"CA","weight_viz":30082448},{"idx":118,"name":"Rancho Calaveras--Valley Springs, CA","long":162973.4423,"lat":4228934.2252,"state":"CA","weight_viz":79702496},{"idx":119,"name":"Rio Vista, CA","long":88028.1065,"lat":4235174.7338,"state":"CA","weight_viz":32816604},{"idx":120,"name":"Porterville, CA","long":317000.1547,"lat":3994121.8673,"state":"CA","weight_viz":53303900},{"idx":121,"name":"Hidden Valley Lake, CA","long":17444.5323,"lat":4309520.6971,"state":"CA","weight_viz":37409532},{"idx":122,"name":"Birch Bay, WA","long":78136.5266,"lat":5438218.47,"state":"WA","weight_viz":129775812},{"idx":123,"name":"Ocean Shores, WA","long":-44056.7941,"lat":5227218.1579,"state":"WA","weight_viz":57156136},{"idx":124,"name":"Vacaville, CA","long":65887.655,"lat":4257943.3272,"state":"CA","weight_viz":70961140},{"idx":125,"name":"Fortuna, CA","long":-104476.5813,"lat":4516938.0162,"state":"CA","weight_viz":90136884},{"idx":126,"name":"Susanville, CA","long":191252.685,"lat":4479749.2226,"state":"CA","weight_viz":55037700},{"idx":127,"name":"Red Bluff, CA","long":54594.7443,"lat":4460396.4322,"state":"CA","weight_viz":94948308},{"idx":128,"name":"Arcata--McKinleyville, CA","long":-97316.0318,"lat":4553551.7939,"state":"CA","weight_viz":170357500},{"idx":129,"name":"Fort Bragg, CA","long":-85090.8898,"lat":4386744.5437,"state":"CA","weight_viz":80896700},{"idx":130,"name":"Patterson, CA","long":134496.9703,"lat":4155229.4662,"state":"CA","weight_viz":58755484},{"idx":131,"name":"Sonoma, CA","long":20963.9359,"lat":4253219.8239,"state":"CA","weight_viz":128758384},{"idx":132,"name":"Fresno, CA","long":253432.6224,"lat":4074905.922,"state":"CA","weight_viz":441049772},{"idx":133,"name":"Hollister, CA","long":108238.213,"lat":4086357.5265,"state":"CA","weight_viz":118474660},{"idx":134,"name":"Forestville, CA","long":-14263.6786,"lat":4274725.6325,"state":"CA","weight_viz":44899460},{"idx":135,"name":"Orosi, CA","long":295437.717,"lat":4046481.4205,"state":"CA","weight_viz":35065660},{"idx":136,"name":"Cloverdale, CA","long":-22574.1862,"lat":4312183.1305,"state":"CA","weight_viz":34901300},{"idx":137,"name":"Grass Valley, CA","long":150885.8774,"lat":4346764.3708,"state":"CA","weight_viz":290078124},{"idx":138,"name":"Santa Rosa, CA","long":-1207.5265,"lat":4270682.5511,"state":"CA","weight_viz":253793906},{"idx":139,"name":"Clearlake, CA","long":12101.0911,"lat":4326099.8629,"state":"CA","weight_viz":75405324},{"idx":140,"name":"King City, CA","long":127978.9105,"lat":4013613.7453,"state":"CA","weight_viz":53633532},{"idx":141,"name":"Jackson, CA","long":169193.9047,"lat":4253241.5702,"state":"CA","weight_viz":53325616},{"idx":142,"name":"Los Banos, CA","long":158312.4573,"lat":4108784.6643,"state":"CA","weight_viz":83996208},{"idx":143,"name":"Santa Cruz, CA","long":54668.1103,"lat":4108150.4347,"state":"CA","weight_viz":151033753},{"idx":144,"name":"Concord, CA","long":59265.0281,"lat":4201066.1478,"state":"CA","weight_viz":525133744},{"idx":145,"name":"Lakeport, CA","long":-6366.3781,"lat":4342309.9394,"state":"CA","weight_viz":107860792},{"idx":146,"name":"Stockton, CA","long":123267.4391,"lat":4210216.0121,"state":"CA","weight_viz":239607200},{"idx":147,"name":"Tracy, CA","long":109213.5103,"lat":4185040.1214,"state":"CA","weight_viz":57456586},{"idx":148,"name":"Seaside--Monterey, CA","long":64964.2181,"lat":4062939.8204,"state":"CA","weight_viz":100229204},{"idx":149,"name":"Park City, UT","long":963846.2918,"lat":4518861.9043,"state":"UT","weight_viz":125064256},{"idx":150,"name":"Stansbury Park, UT","long":897927.6062,"lat":4509776.1892,"state":"UT","weight_viz":30062432},{"idx":151,"name":"Grantsville, UT","long":884457.1312,"lat":4503295.8647,"state":"UT","weight_viz":39085404},{"idx":152,"name":"Price, UT","long":1030635.1312,"lat":4403753.319,"state":"UT","weight_viz":98873260},{"idx":153,"name":"Vernal, UT","long":1132215.9912,"lat":4504098.277,"state":"UT","weight_viz":176719552},{"idx":154,"name":"Spring Creek South, NV","long":619134.6635,"lat":4509699.6213,"state":"NV","weight_viz":58269732},{"idx":155,"name":"Cedar City, UT","long":845776.0819,"lat":4179912.4136,"state":"UT","weight_viz":174053936},{"idx":156,"name":"Heber, UT","long":972699.7419,"lat":4498459.2723,"state":"UT","weight_viz":132966724},{"idx":157,"name":"Logan, UT","long":929616.7278,"lat":4632058.9932,"state":"UT","weight_viz":113622196},{"idx":158,"name":"Lodi, CA","long":125236.5539,"lat":4229805.2985,"state":"CA","weight_viz":41253688},{"idx":159,"name":"Auburn--North Auburn, CA","long":146060.3139,"lat":4316826.1079,"state":"CA","weight_viz":276796128},{"idx":160,"name":"Madera, CA","long":227254.6249,"lat":4096124.938,"state":"CA","weight_viz":58007622},{"idx":161,"name":"Vallejo, CA","long":42990.9579,"lat":4230816.7414,"state":"CA","weight_viz":109344586},{"idx":162,"name":"Sonora--Jamestown--Phoenix Lake, CA","long":208090.1187,"lat":4210708.4029,"state":"CA","weight_viz":323305308},{"idx":163,"name":"Dayton, NV","long":279724.901,"lat":4350113.4011,"state":"NV","weight_viz":66525052},{"idx":164,"name":"Napa, CA","long":37191.9869,"lat":4251863.4722,"state":"CA","weight_viz":66897290},{"idx":165,"name":"Kuna, ID","long":546794.4359,"lat":4816853.0991,"state":"ID","weight_viz":54909160},{"idx":166,"name":"Rexburg, ID","long":919327.5771,"lat":4865840.6503,"state":"ID","weight_viz":72843240},{"idx":167,"name":"Hailey, ID","long":718742.6203,"lat":4820207.8588,"state":"ID","weight_viz":60262764},{"idx":168,"name":"Idaho Falls, ID","long":904201.0203,"lat":4827935.0819,"state":"ID","weight_viz":115428782},{"idx":169,"name":"Mountain Home, ID","long":606469.3569,"lat":4777268.0532,"state":"ID","weight_viz":78739704},{"idx":170,"name":"Ontario, OR--ID","long":504067.0489,"lat":4876642.3265,"state":"ID","weight_viz":132852696},{"idx":171,"name":"Burley, ID","long":764537.951,"lat":4715703.3955,"state":"ID","weight_viz":100071324},{"idx":172,"name":"Rupert, ID","long":772040.6513,"lat":4723564.322,"state":"ID","weight_viz":32561872},{"idx":173,"name":"Rigby, ID","long":910191.9102,"lat":4847274.9367,"state":"ID","weight_viz":86702392},{"idx":174,"name":"Jerome, ID","long":703058.2523,"lat":4733378.8682,"state":"ID","weight_viz":45746696},{"idx":175,"name":"Twin Falls, ID","long":709039.8796,"lat":4715284.1583,"state":"ID","weight_viz":187616496},{"idx":176,"name":"Boise City, ID","long":557245.9577,"lat":4829683.5298,"state":"ID","weight_viz":345745048},{"idx":177,"name":"La Pine Northwest, OR","long":135315.5972,"lat":4852325.6454,"state":"OR","weight_viz":38755708},{"idx":178,"name":"Baker City, OR","long":434415.2572,"lat":4959248.3101,"state":"OR","weight_viz":52021724},{"idx":179,"name":"Nampa, ID","long":531588.5637,"lat":4829220.4399,"state":"ID","weight_viz":179747454},{"idx":180,"name":"Bend, OR","long":154531.7964,"lat":4886357.8143,"state":"OR","weight_viz":102869823},{"idx":181,"name":"Nine Mile Falls, WA","long":455474.364,"lat":5296316.7066,"state":"WA","weight_viz":45180192},{"idx":182,"name":"Lewiston, ID--WA","long":498117.3599,"lat":5137270.8316,"state":"WA","weight_viz":73181884},{"idx":183,"name":"Toppenish, WA","long":245584.6501,"lat":5142761.0122,"state":"WA","weight_viz":90228224},{"idx":184,"name":"Chelan, WA","long":270292.4456,"lat":5305054.8166,"state":"WA","weight_viz":50786908},{"idx":185,"name":"Pahrump, NV","long":589320.059,"lat":4005646.0314,"state":"NV","weight_viz":457323700},{"idx":186,"name":"Fallon, NV","long":344043.4255,"lat":4371700.8046,"state":"NV","weight_viz":146437276},{"idx":187,"name":"Mammoth Lakes, CA","long":325433.2536,"lat":4167779.0812,"state":"CA","weight_viz":34420408},{"idx":188,"name":"Galt, CA","long":123750.2639,"lat":4244452.8876,"state":"CA","weight_viz":82021132},{"idx":189,"name":"Summit Park, UT","long":957052.9214,"lat":4525397.9095,"state":"UT","weight_viz":36101400},{"idx":190,"name":"Elko, NV","long":603464.5671,"lat":4521362.405,"state":"NV","weight_viz":106384576},{"idx":191,"name":"West Wendover, NV--UT","long":750494.7326,"lat":4512245.8013,"state":"UT","weight_viz":70826204},{"idx":192,"name":"Provo--Orem, UT","long":948175.1924,"lat":4471704.8476,"state":"UT","weight_viz":437444930},{"idx":193,"name":"Santaquin, UT","long":944237.1713,"lat":4437118.9802,"state":"UT","weight_viz":89890352},{"idx":194,"name":"Medford, OR","long":18437.5705,"lat":4703635.6717,"state":"OR","weight_viz":167827268},{"idx":195,"name":"Lincoln City, OR","long":-52962.6023,"lat":5001911.945,"state":"OR","weight_viz":73837400},{"idx":196,"name":"Cottonwood, CA","long":49408.8629,"lat":4484424.7379,"state":"CA","weight_viz":35088692},{"idx":197,"name":"Taft, CA","long":275791.215,"lat":3891550.3283,"state":"CA","weight_viz":57666960},{"idx":198,"name":"San Carlos, AZ","long":1109569.1951,"lat":3708530.5036,"state":"AZ","weight_viz":43207940},{"idx":199,"name":"Guerneville, CA","long":-23243.1689,"lat":4278269.3093,"state":"CA","weight_viz":47265472},{"idx":200,"name":"Modesto, CA","long":150129.4415,"lat":4177043.342,"state":"CA","weight_viz":238633249},{"idx":201,"name":"Bonadelle Ranchos-Madera Ranchos, CA","long":242974.29,"lat":4094578.6504,"state":"CA","weight_viz":92209636},{"idx":202,"name":"Avenal, CA","long":218161.0913,"lat":3987712.2505,"state":"CA","weight_viz":31651908},{"idx":203,"name":"Reno, NV--CA","long":259581.2115,"lat":4379567.3679,"state":"CA","weight_viz":426132705},{"idx":204,"name":"South Lake Tahoe, CA--NV","long":240963.5077,"lat":4311375.601,"state":"NV","weight_viz":172832480},{"idx":205,"name":"Sacramento, CA","long":123284.4654,"lat":4285625.8744,"state":"CA","weight_viz":1220258014},{"idx":206,"name":"Gilroy--Morgan Hill, CA","long":90083.4256,"lat":4113818.5402,"state":"CA","weight_viz":117828287},{"idx":207,"name":"San Francisco--Oakland, CA","long":33819.3092,"lat":4189613.4836,"state":"CA","weight_viz":1356434232},{"idx":208,"name":"Rancho Murieta, CA","long":144045.1774,"lat":4269446.677,"state":"CA","weight_viz":43045400},{"idx":209,"name":"Johnson Lane, NV","long":263374.6194,"lat":4324622.4323,"state":"NV","weight_viz":43112376},{"idx":210,"name":"Petaluma, CA","long":5758.5366,"lat":4248736.4636,"state":"CA","weight_viz":55180660},{"idx":211,"name":"Carson City, NV","long":262104.6056,"lat":4337652.6684,"state":"NV","weight_viz":59793651},{"idx":212,"name":"Truckee, CA","long":226581.7458,"lat":4359104.2432,"state":"CA","weight_viz":109677684},{"idx":213,"name":"Selma, CA","long":266547.1737,"lat":4049999.8081,"state":"CA","weight_viz":129894264},{"idx":214,"name":"Greenfield, CA","long":118975.2676,"lat":4028410.7736,"state":"CA","weight_viz":28420644},{"idx":215,"name":"Half Moon Bay, CA","long":16595.7915,"lat":4163725.7717,"state":"CA","weight_viz":76700840},{"idx":216,"name":"Sanger, CA","long":270846.5146,"lat":4064281.175,"state":"CA","weight_viz":58587656},{"idx":217,"name":"San Jose, CA","long":61889.953,"lat":4142931.5729,"state":"CA","weight_viz":739557296},{"idx":218,"name":"Sahuarita--Green Valley, AZ","long":1068442.2701,"lat":3544424.8249,"state":"AZ","weight_viz":236569632},{"idx":219,"name":"Snowflake, AZ","long":1134709.4717,"lat":3838175.4822,"state":"AZ","weight_viz":51212932},{"idx":220,"name":"Coeur d'Alene, ID","long":511348.0884,"lat":5285606.0863,"state":"ID","weight_viz":122415728},{"idx":221,"name":"Kennewick--Pasco, WA","long":330750.9011,"lat":5122900.9354,"state":"WA","weight_viz":266028267},{"idx":222,"name":"Ellensburg, WA","long":231228.3848,"lat":5211367.2708,"state":"WA","weight_viz":91658960},{"idx":223,"name":"Omak, WA","long":312540.5562,"lat":5363795.157,"state":"WA","weight_viz":48741220},{"idx":224,"name":"Cashmere, WA","long":237277.5981,"lat":5268907.6466,"state":"WA","weight_viz":29471580},{"idx":225,"name":"Redding, CA","long":46154.9711,"lat":4505515.4934,"state":"CA","weight_viz":184049014},{"idx":226,"name":"Yreka, CA","long":30976.7151,"lat":4635053.5904,"state":"CA","weight_viz":51318456},{"idx":227,"name":"Yuba City, CA","long":101658.4233,"lat":4340546.2458,"state":"CA","weight_viz":100108677},{"idx":228,"name":"Placerville--Diamond Springs, CA","long":172161.6398,"lat":4292694.5911,"state":"CA","weight_viz":269931448},{"idx":229,"name":"Salt Lake City--West Valley City, UT","long":929087.4442,"lat":4510984.7831,"state":"UT","weight_viz":719701603},{"idx":230,"name":"Spring Creek North, NV","long":612442.7287,"lat":4518044.2367,"state":"NV","weight_viz":34189260},{"idx":231,"name":"Tooele, UT","long":898144.6352,"lat":4498177.0104,"state":"UT","weight_viz":95137880},{"idx":232,"name":"Ogden--Layton, UT","long":920892.413,"lat":4566420.3481,"state":"UT","weight_viz":563994569},{"idx":233,"name":"Tremonton, UT","long":901490.2471,"lat":4630144.5,"state":"UT","weight_viz":82115492},{"idx":234,"name":"Roosevelt, UT","long":1095392.2672,"lat":4484129.5423,"state":"UT","weight_viz":32533512},{"idx":235,"name":"Nephi, UT","long":943163.411,"lat":4408461.1021,"state":"UT","weight_viz":33261452},{"idx":236,"name":"Quincy, WA","long":283997.9389,"lat":5235189.1744,"state":"WA","weight_viz":30547900},{"idx":237,"name":"Spokane, WA","long":473495.4745,"lat":5280797.327,"state":"WA","weight_viz":425466498},{"idx":238,"name":"Cle Elum, WA","long":200197.9207,"lat":5235266.1564,"state":"WA","weight_viz":31507248},{"idx":239,"name":"Yakima, WA","long":228620.7726,"lat":5168153.5455,"state":"WA","weight_viz":154940550},{"idx":240,"name":"Hermiston, OR","long":322535.1839,"lat":5081051.3329,"state":"OR","weight_viz":158977496},{"idx":241,"name":"Colville, WA","long":433929.3072,"lat":5377020.4467,"state":"WA","weight_viz":47664900},{"idx":242,"name":"Othello, WA","long":333296.6707,"lat":5186383.8551,"state":"WA","weight_viz":81286744},{"idx":243,"name":"Pendleton, OR","long":359684.0363,"lat":5058544.2038,"state":"OR","weight_viz":94963024},{"idx":244,"name":"Walla Walla, WA--OR","long":395197.9408,"lat":5099193.4123,"state":"OR","weight_viz":71676937},{"idx":245,"name":"Sunnyside, WA","long":268276.6841,"lat":5133883.3418,"state":"WA","weight_viz":61152252},{"idx":246,"name":"Moscow, ID","long":500494.2428,"lat":5175299.434,"state":"ID","weight_viz":60785220},{"idx":247,"name":"Pullman, WA","long":486605.7923,"lat":5175527.8004,"state":"WA","weight_viz":70766972},{"idx":248,"name":"Leavenworth, WA","long":224591.6101,"lat":5277337.468,"state":"WA","weight_viz":38548408},{"idx":249,"name":"Wenatchee, WA","long":251860.1948,"lat":5257403.3072,"state":"WA","weight_viz":81401425},{"idx":250,"name":"Jackson, WY","long":1003297.7049,"lat":4830705.9057,"state":"WY","weight_viz":42215396},{"idx":251,"name":"Evanston, WY","long":1005679.9772,"lat":4585098.392,"state":"WY","weight_viz":72815572},{"idx":252,"name":"Rock Springs, WY","long":1146889.3114,"lat":4634038.9894,"state":"WY","weight_viz":145691924},{"idx":253,"name":"Cody, WY","long":1131752.781,"lat":4960801.5792,"state":"WY","weight_viz":65729476},{"idx":254,"name":"Green River, WY","long":1128397.6583,"lat":4623888.6526,"state":"WY","weight_viz":48481540},{"idx":255,"name":"Arvin, CA","long":333180.7313,"lat":3897094.8906,"state":"CA","weight_viz":44819856},{"idx":256,"name":"Payson, AZ","long":1022637.1704,"lat":3804181.4975,"state":"AZ","weight_viz":81136912},{"idx":257,"name":"Casa Grande, AZ","long":992202.0947,"lat":3653397.5403,"state":"AZ","weight_viz":57679510},{"idx":258,"name":"Village of Oak Creek (Big Park), AZ","long":978609.8656,"lat":3861161.6893,"state":"AZ","weight_viz":30349116},{"idx":259,"name":"Fort Irwin, CA","long":528168.3164,"lat":3902082.5462,"state":"CA","weight_viz":31006684},{"idx":260,"name":"Phelan, CA","long":449303.9844,"lat":3810270.5886,"state":"CA","weight_viz":151475288},{"idx":261,"name":"Twentynine Palms, CA","long":586170.0874,"lat":3777934.7243,"state":"CA","weight_viz":68895260},{"idx":262,"name":"Bullhead City, AZ--NV","long":720487.841,"lat":3884451.6326,"state":"NV","weight_viz":300891600},{"idx":263,"name":"Blythe, CA--AZ","long":723922.1832,"lat":3721722.1696,"state":"AZ","weight_viz":64003908},{"idx":264,"name":"Yuma, AZ--CA","long":728123.6198,"lat":3618131.4131,"state":"CA","weight_viz":152454075},{"idx":265,"name":"Kingman, AZ","long":771432.7718,"lat":3901707.831,"state":"AZ","weight_viz":246183592},{"idx":266,"name":"Lake Havasu City, AZ","long":746585.2891,"lat":3820320.7984,"state":"AZ","weight_viz":76528238},{"idx":267,"name":"Quartzsite, AZ","long":757694.7137,"lat":3729109.1379,"state":"AZ","weight_viz":29111452},{"idx":268,"name":"Yucca Valley, CA","long":555714.877,"lat":3775899.3966,"state":"CA","weight_viz":179899900},{"idx":269,"name":"Brawley, CA","long":637189.1245,"lat":3649803.4159,"state":"CA","weight_viz":82116896},{"idx":270,"name":"San Diego, CA","long":487961.2488,"lat":3643290.5478,"state":"CA","weight_viz":1900801878},{"idx":271,"name":"Bishop, CA","long":374595.9685,"lat":4136231.7913,"state":"CA","weight_viz":44070980},{"idx":272,"name":"Winnemucca, NV","long":437603.6774,"lat":4533512.6239,"state":"NV","weight_viz":94445156},{"idx":273,"name":"Mount Hood Village, OR","long":108201.8128,"lat":5035242.2098,"state":"OR","weight_viz":44180832},{"idx":274,"name":"Sutherlin, OR","long":-11481.8579,"lat":4824059.9599,"state":"OR","weight_viz":40305344},{"idx":275,"name":"Lebanon, OR","long":31950.98,"lat":4946261.3689,"state":"OR","weight_viz":105104912},{"idx":276,"name":"Seaside, OR","long":-35536.0369,"lat":5118881.67,"state":"OR","weight_viz":54197840},{"idx":277,"name":"Tillamook, OR","long":-34593.0192,"lat":5058407.866,"state":"OR","weight_viz":45316728},{"idx":278,"name":"Silverton, OR","long":44662.6994,"lat":4999793.2441,"state":"OR","weight_viz":40149820},{"idx":279,"name":"St. Helens, OR","long":45950.3887,"lat":5091345.3978,"state":"OR","weight_viz":135062888},{"idx":280,"name":"Ridgecrest, CA","long":438156.6383,"lat":3942540.8006,"state":"CA","weight_viz":187667328},{"idx":281,"name":"Tehachapi--Golden Hills, CA","long":365498.5259,"lat":3889151.2208,"state":"CA","weight_viz":94223544},{"idx":282,"name":"Rosamond, CA","long":392168.7525,"lat":3858230.5081,"state":"CA","weight_viz":65649516},{"idx":283,"name":"California City, CA","long":412143.9559,"lat":3887136.8522,"state":"CA","weight_viz":78055988},{"idx":284,"name":"Delano, CA","long":295182.3393,"lat":3961175.6142,"state":"CA","weight_viz":25685989},{"idx":285,"name":"Bakersfield, CA","long":315539.7002,"lat":3915030.592,"state":"CA","weight_viz":358505782},{"idx":286,"name":"Santa Maria, CA","long":185811.0453,"lat":3868629.9752,"state":"CA","weight_viz":75460207},{"idx":287,"name":"Nipomo, CA","long":180480.4197,"lat":3882189.2428,"state":"CA","weight_viz":73849496},{"idx":288,"name":"El Paso de Robles (Paso Robles)--Atascadero, CA","long":167056.7167,"lat":3937853.4567,"state":"CA","weight_viz":82087214},{"idx":289,"name":"San Luis Obispo, CA","long":166579.708,"lat":3910149.1882,"state":"CA","weight_viz":52862703},{"idx":290,"name":"Lompoc, CA","long":182879.6219,"lat":3841212.7999,"state":"CA","weight_viz":27701718},{"idx":291,"name":"Arroyo Grande--Grover Beach, CA","long":171226.4182,"lat":3892168.463,"state":"CA","weight_viz":59604100},{"idx":292,"name":"Solvang--Buellton--Santa Ynez, CA","long":212731.352,"lat":3834855.2834,"state":"CA","weight_viz":78999960},{"idx":293,"name":"Havre, MT","long":1040050.5796,"lat":5402734.444,"state":"MT","weight_viz":43831596},{"idx":294,"name":"Livingston, MT","long":1001247.4892,"lat":5076304.1216,"state":"MT","weight_viz":42507216},{"idx":295,"name":"Mesquite, NV--AZ","long":760574.3796,"lat":4077788.7447,"state":"AZ","weight_viz":79565888},{"idx":296,"name":"Boulder City, NV","long":694543.6108,"lat":3982893.1688,"state":"NV","weight_viz":63013280},{"idx":297,"name":"Colorado City, AZ--UT","long":858381.9454,"lat":4100700.0938,"state":"UT","weight_viz":55501136},{"idx":298,"name":"Moapa Valley, NV","long":726981.9351,"lat":4051039.7979,"state":"NV","weight_viz":76434264},{"idx":299,"name":"Las Vegas--Henderson, NV","long":665063.214,"lat":4000197.5254,"state":"NV","weight_viz":1080045571},{"idx":300,"name":"St. George, UT","long":804984.2081,"lat":4112071.8331,"state":"UT","weight_viz":116455947},{"idx":301,"name":"Hurricane, UT","long":826431.0851,"lat":4120781.3866,"state":"UT","weight_viz":107950196},{"idx":302,"name":"La Grande, OR","long":415470.5928,"lat":5020107.6693,"state":"OR","weight_viz":62719336},{"idx":303,"name":"Ephrata, WA","long":307264.0626,"lat":5243067.584,"state":"WA","weight_viz":29923436},{"idx":304,"name":"Cheney, WA","long":456060.019,"lat":5259847.1839,"state":"WA","weight_viz":31991692},{"idx":305,"name":"Moses Lake, WA","long":325173.4764,"lat":5224326.6547,"state":"WA","weight_viz":275261908},{"idx":306,"name":"Wasco, CA","long":285430.2777,"lat":3941497.229,"state":"CA","weight_viz":62753980},{"idx":307,"name":"El Centro--Calexico, CA","long":636326.0281,"lat":3626688.1451,"state":"CA","weight_viz":77861144},{"idx":308,"name":"Desert Hot Springs, CA","long":546365.4106,"lat":3756266.8882,"state":"CA","weight_viz":170960644},{"idx":309,"name":"Somerton, AZ","long":718242.5467,"lat":3608753.2974,"state":"AZ","weight_viz":79026264},{"idx":310,"name":"Ramona, CA","long":514301.8027,"lat":3654383.014,"state":"CA","weight_viz":194083692},{"idx":311,"name":"Mecca, CA","long":584137.4311,"lat":3713145.8483,"state":"CA","weight_viz":40431756},{"idx":312,"name":"Needles, CA--AZ","long":719678.3248,"lat":3860158.7558,"state":"AZ","weight_viz":104000412},{"idx":313,"name":"Big Bear City, CA","long":511129.1682,"lat":3789318.2951,"state":"CA","weight_viz":167382200},{"idx":314,"name":"Indio--Cathedral City, CA","long":560490.5925,"lat":3734202.4603,"state":"CA","weight_viz":372782609},{"idx":315,"name":"Twentynine Palms Base, CA","long":586997.1756,"lat":3787852.3792,"state":"CA","weight_viz":38146404},{"idx":316,"name":"Victorville--Hesperia, CA","long":471437.6385,"lat":3815097.224,"state":"CA","weight_viz":433662622},{"idx":317,"name":"San Luis, AZ","long":709306.924,"lat":3597456.8503,"state":"AZ","weight_viz":36897504},{"idx":318,"name":"Barstow, CA","long":496492.976,"lat":3860626.7228,"state":"CA","weight_viz":127895296},{"idx":319,"name":"Parker, AZ--CA","long":749388.0282,"lat":3782023.6809,"state":"CA","weight_viz":28260576},{"idx":320,"name":"Tucson, AZ","long":1070679.6761,"lat":3584770.3023,"state":"AZ","weight_viz":914226679},{"idx":321,"name":"Page, AZ","long":994230.0175,"lat":4100290.9181,"state":"AZ","weight_viz":33631512},{"idx":322,"name":"Buckeye, AZ","long":910933.4463,"lat":3703303.1682,"state":"AZ","weight_viz":108325512},{"idx":323,"name":"Vail, AZ","long":1094544.6373,"lat":3564516.4309,"state":"AZ","weight_viz":72924604},{"idx":324,"name":"Winslow, AZ","long":1073817.4508,"lat":3893198.3472,"state":"AZ","weight_viz":96199552},{"idx":325,"name":"Coolidge, AZ","long":1011375.5871,"lat":3662137.0438,"state":"AZ","weight_viz":43626112},{"idx":326,"name":"Picture Rocks, AZ","long":1044845.2052,"lat":3591888.1738,"state":"AZ","weight_viz":43245644},{"idx":327,"name":"Arizona City, AZ","long":999464.4473,"lat":3636031.0641,"state":"AZ","weight_viz":48553376},{"idx":328,"name":"Nogales, AZ","long":1074588.4622,"lat":3490585.4174,"state":"AZ","weight_viz":258302104},{"idx":329,"name":"McFarland, CA","long":298882.9391,"lat":3950207.0589,"state":"CA","weight_viz":39690596},{"idx":330,"name":"Los Molinos, CA","long":63768.7858,"lat":4444320.9746,"state":"CA","weight_viz":33023508},{"idx":331,"name":"Oroville, CA","long":109343.9614,"lat":4382007.2231,"state":"CA","weight_viz":254691548},{"idx":332,"name":"Ukiah, CA","long":-35925.716,"lat":4355806.8769,"state":"CA","weight_viz":165311500},{"idx":333,"name":"Willits, CA","long":-48440.9521,"lat":4383182.7647,"state":"CA","weight_viz":54222860},{"idx":334,"name":"Clearlake Riviera, CA","long":3252.2636,"lat":4327814.9945,"state":"CA","weight_viz":31898540},{"idx":335,"name":"Livermore, CA","long":80561.3586,"lat":4181604.3377,"state":"CA","weight_viz":63117618},{"idx":336,"name":"Washoe Valley, NV","long":260854.1002,"lat":4352816.3566,"state":"NV","weight_viz":31708600},{"idx":337,"name":"Incline Village, NV--CA","long":241853.1821,"lat":4348937.3679,"state":"CA","weight_viz":123845120},{"idx":338,"name":"Salinas, CA","long":83384.1999,"lat":4072326.5373,"state":"CA","weight_viz":126976632},{"idx":339,"name":"Whitefish, MT","long":696704.114,"lat":5364934.4852,"state":"MT","weight_viz":47120784},{"idx":340,"name":"Columbia Falls, MT","long":707822.763,"lat":5361579.8149,"state":"MT","weight_viz":46994952},{"idx":341,"name":"Hamilton, MT","long":719320.9047,"lat":5124671.1121,"state":"MT","weight_viz":43303924},{"idx":342,"name":"Kalispell, MT","long":700075.232,"lat":5343299.3233,"state":"MT","weight_viz":180700724},{"idx":343,"name":"Helena, MT","long":883523.7212,"lat":5174477.1025,"state":"MT","weight_viz":291532416},{"idx":344,"name":"Polson, MT","long":713217.265,"lat":5285789.8529,"state":"MT","weight_viz":29457444},{"idx":345,"name":"Four Corners, MT","long":952566.1228,"lat":5073118.0216,"state":"MT","weight_viz":31915500},{"idx":346,"name":"Boardman, OR","long":290597.8948,"lat":5079313.1084,"state":"OR","weight_viz":29820096},{"idx":347,"name":"Sandpoint, ID","long":533492.6773,"lat":5346195.7792,"state":"ID","weight_viz":86649164},{"idx":348,"name":"Grandview, WA","long":280531.2838,"lat":5124278.3616,"state":"WA","weight_viz":114159672},{"idx":349,"name":"Eloy, AZ","long":1008668.7342,"lat":3638337.762,"state":"AZ","weight_viz":31827444},{"idx":350,"name":"Florence, AZ","long":1025011.4738,"lat":3670427.919,"state":"AZ","weight_viz":29930992},{"idx":351,"name":"Chino Valley, AZ","long":914897.9886,"lat":3856219.0004,"state":"AZ","weight_viz":128915940},{"idx":352,"name":"Flagstaff, AZ","long":989503.4949,"lat":3908502.9432,"state":"AZ","weight_viz":90137027},{"idx":353,"name":"Cottonwood--Verde Village, AZ","long":956593.9818,"lat":3854280.1546,"state":"AZ","weight_viz":149922348},{"idx":354,"name":"Tuba City, AZ","long":1019068.6867,"lat":4013929.6232,"state":"AZ","weight_viz":56941044},{"idx":355,"name":"Davis, CA","long":86972.5814,"lat":4277939.621,"state":"CA","weight_viz":36567532},{"idx":356,"name":"Missoula, MT","long":725977.1735,"lat":5195488.6541,"state":"MT","weight_viz":117044404},{"idx":357,"name":"Belgrade, MT","long":951826.2841,"lat":5086343.9257,"state":"MT","weight_viz":107519640},{"idx":358,"name":"Great Falls, MT","long":930388.2902,"lat":5276765.8931,"state":"MT","weight_viz":80672526},{"idx":359,"name":"Libby, MT","long":606334.6835,"lat":5361029.1336,"state":"MT","weight_viz":29779384},{"idx":360,"name":"Laurel, MT","long":1141533.143,"lat":5091423.4132,"state":"MT","weight_viz":67843684},{"idx":361,"name":"Los Angeles--Long Beach--Anaheim, CA","long":397833.9465,"lat":3760880.1048,"state":"CA","weight_viz":4501807190},{"idx":362,"name":"Lake Arrowhead--Crestline, CA","long":478420.7646,"lat":3789882.8917,"state":"CA","weight_viz":175393668},{"idx":363,"name":"Riverside--San Bernardino, CA","long":468187.5971,"lat":3760730.821,"state":"CA","weight_viz":1412874647},{"idx":364,"name":"Hemet, CA","long":501868.9556,"lat":3734719.1755,"state":"CA","weight_viz":127137255},{"idx":365,"name":"Murrieta--Temecula--Menifee, CA","long":481661.5231,"lat":3720431.8679,"state":"CA","weight_viz":418924428},{"idx":366,"name":"Mission Viejo--Lake Forest--San Clemente, CA","long":438824.9215,"lat":3712738.6508,"state":"CA","weight_viz":390183256},{"idx":367,"name":"Camp Verde, AZ","long":970258.5251,"lat":3839462.4318,"state":"AZ","weight_viz":64726644},{"idx":368,"name":"Prescott Valley--Prescott, AZ","long":922281.5729,"lat":3835988.8216,"state":"AZ","weight_viz":132111585},{"idx":369,"name":"Globe, AZ","long":1076260.5402,"lat":3712984.7583,"state":"AZ","weight_viz":79705724},{"idx":370,"name":"Maricopa, AZ","long":964700.4118,"lat":3669102.4355,"state":"AZ","weight_viz":141525076},{"idx":371,"name":"Show Low, AZ","long":1141251.7441,"lat":3809955.5808,"state":"AZ","weight_viz":92535288},{"idx":372,"name":"Avra Valley, AZ","long":1034418.9579,"lat":3600154.5104,"state":"AZ","weight_viz":40508416},{"idx":373,"name":"Phoenix--Mesa, AZ","long":967526.8738,"lat":3717428.2502,"state":"AZ","weight_viz":2968773027},{"idx":374,"name":"Corona de Tucson, AZ","long":1087435.7486,"lat":3551945.4137,"state":"AZ","weight_viz":44388404},{"idx":375,"name":"Paradise, CA","long":105774.5784,"lat":4413018.4138,"state":"CA","weight_viz":216862640},{"idx":376,"name":"Corning, CA","long":57414.0401,"lat":4432878.3051,"state":"CA","weight_viz":40004028},{"idx":377,"name":"Eureka, CA","long":-105165.5585,"lat":4538952.4339,"state":"CA","weight_viz":192158960},{"idx":378,"name":"Chico, CA","long":84887.2138,"lat":4411325.5495,"state":"CA","weight_viz":89113153},{"idx":379,"name":"Gridley, CA","long":96240.0718,"lat":4367178.6549,"state":"CA","weight_viz":46733032},{"idx":380,"name":"Watsonville, CA","long":74912.6357,"lat":4098658.1689,"state":"CA","weight_viz":59168991},{"idx":381,"name":"Soledad, CA","long":110445.0269,"lat":4042386.8315,"state":"CA","weight_viz":43044204},{"idx":382,"name":"Hanford, CA","long":258176.4031,"lat":4023042.2573,"state":"CA","weight_viz":71903043},{"idx":383,"name":"Marana West, AZ","long":1044702.4898,"lat":3604645.2368,"state":"AZ","weight_viz":30791780}],"links":[{"to":2,"from":1,"force":-34.3858},{"to":3,"from":1,"force":-37.8574},{"to":4,"from":1,"force":-39.304},{"to":5,"from":1,"force":-25.8366},{"to":6,"from":1,"force":-39.4655},{"to":9,"from":1,"force":-38.668},{"to":11,"from":1,"force":-39.2316},{"to":13,"from":1,"force":-27.1978},{"to":35,"from":1,"force":-39.0133},{"to":36,"from":1,"force":-38.2263},{"to":66,"from":1,"force":-38.637},{"to":67,"from":1,"force":-38.618},{"to":68,"from":1,"force":-38.2012},{"to":69,"from":1,"force":-38.2911},{"to":187,"from":1,"force":-37.5154},{"to":4,"from":2,"force":-38.8079},{"to":6,"from":2,"force":-38.9648},{"to":11,"from":2,"force":-38.7333},{"to":37,"from":2,"force":-38.5483},{"to":22,"from":3,"force":-39.5165},{"to":39,"from":3,"force":-39.4884},{"to":40,"from":3,"force":-39.5797},{"to":51,"from":3,"force":-38.1848},{"to":64,"from":3,"force":-38.2074},{"to":91,"from":3,"force":-37.6304},{"to":93,"from":3,"force":-37.4819},{"to":140,"from":3,"force":-37.305},{"to":7,"from":4,"force":-38.7128},{"to":8,"from":4,"force":-39.2207},{"to":10,"from":4,"force":-39.1362},{"to":12,"from":4,"force":-28.0784},{"to":22,"from":4,"force":-40.2591},{"to":52,"from":4,"force":-38.0954},{"to":118,"from":4,"force":-36.7502},{"to":130,"from":4,"force":-37.0045},{"to":38,"from":5,"force":-36.0199},{"to":186,"from":5,"force":-36.3022},{"to":7,"from":6,"force":-38.9764},{"to":8,"from":6,"force":-39.3931},{"to":10,"from":6,"force":-39.2868},{"to":24,"from":6,"force":-27.2987},{"to":27,"from":6,"force":-40.8641},{"to":120,"from":6,"force":-39.7164},{"to":126,"from":6,"force":-38.2784},{"to":127,"from":6,"force":-37.7894},{"to":129,"from":6,"force":-38.0572},{"to":131,"from":6,"force":-36.1148},{"to":136,"from":6,"force":-36.9615},{"to":284,"from":6,"force":-39.8333},{"to":289,"from":6,"force":-39.785},{"to":290,"from":6,"force":-40.156},{"to":11,"from":7,"force":-38.8709},{"to":14,"from":7,"force":-26.7597},{"to":135,"from":7,"force":-36.5117},{"to":9,"from":8,"force":-38.6163},{"to":71,"from":8,"force":-37.8093},{"to":22,"from":9,"force":-39.771},{"to":39,"from":9,"force":-39.7001},{"to":121,"from":9,"force":-36.946},{"to":11,"from":10,"force":-39.0351},{"to":110,"from":11,"force":-38.2314},{"to":203,"from":11,"force":-37.0408},{"to":41,"from":12,"force":-39.357},{"to":42,"from":12,"force":-39.446},{"to":43,"from":12,"force":-39.0873},{"to":44,"from":12,"force":-38.7735},{"to":198,"from":12,"force":-38.1072},{"to":219,"from":12,"force":-39.0765},{"to":256,"from":12,"force":-38.9728},{"to":257,"from":12,"force":-38.449},{"to":349,"from":12,"force":-37.9313},{"to":15,"from":13,"force":-38.397},{"to":16,"from":13,"force":-38.8723},{"to":21,"from":13,"force":-38.7204},{"to":166,"from":13,"force":-38.8008},{"to":17,"from":14,"force":-37.9494},{"to":23,"from":14,"force":-38.5374},{"to":25,"from":14,"force":-39.6008},{"to":26,"from":14,"force":-38.8796},{"to":27,"from":14,"force":-38.763},{"to":99,"from":14,"force":-37.316},{"to":18,"from":15,"force":-38.7915},{"to":19,"from":15,"force":-38.7772},{"to":165,"from":15,"force":-38.7139},{"to":18,"from":16,"force":-39.3057},{"to":19,"from":16,"force":-39.3119},{"to":20,"from":16,"force":-38.4323},{"to":167,"from":16,"force":-38.2678},{"to":25,"from":17,"force":-38.4609},{"to":50,"from":17,"force":-36.7343},{"to":21,"from":18,"force":-39.1659},{"to":21,"from":19,"force":-39.1632},{"to":168,"from":20,"force":-38.0043},{"to":173,"from":20,"force":-37.7521},{"to":165,"from":21,"force":-39.0758},{"to":169,"from":21,"force":-38.6214},{"to":270,"from":22,"force":-38.2382},{"to":308,"from":22,"force":-37.5793},{"to":313,"from":22,"force":-36.9438},{"to":34,"from":23,"force":-37.8699},{"to":46,"from":24,"force":-36.8323},{"to":57,"from":24,"force":-38.2727},{"to":60,"from":24,"force":-37.912},{"to":76,"from":24,"force":-36.6816},{"to":28,"from":25,"force":-38.5464},{"to":29,"from":25,"force":-38.4071},{"to":30,"from":25,"force":-38.6117},{"to":31,"from":25,"force":-38.0474},{"to":32,"from":25,"force":-38.2033},{"to":47,"from":25,"force":-37.1267},{"to":48,"from":25,"force":-36.9583},{"to":104,"from":25,"force":-35.9676},{"to":111,"from":25,"force":-36.5744},{"to":28,"from":26,"force":-37.9176},{"to":72,"from":27,"force":-37.7808},{"to":120,"from":27,"force":-41.6609},{"to":158,"from":27,"force":-41.0388},{"to":210,"from":27,"force":-40.9405},{"to":284,"from":27,"force":-41.7515},{"to":289,"from":27,"force":-41.751},{"to":290,"from":27,"force":-41.9173},{"to":355,"from":27,"force":-40.8954},{"to":95,"from":28,"force":-37.8965},{"to":94,"from":29,"force":-36.1802},{"to":95,"from":29,"force":-38.0935},{"to":103,"from":29,"force":-37.8921},{"to":33,"from":30,"force":-36.8707},{"to":95,"from":30,"force":-37.9193},{"to":34,"from":31,"force":-37.9196},{"to":45,"from":31,"force":-26.0256},{"to":49,"from":31,"force":-37.9466},{"to":73,"from":31,"force":-37.8937},{"to":96,"from":31,"force":-37.6646},{"to":95,"from":32,"force":-38.3399},{"to":34,"from":33,"force":-37.9183},{"to":98,"from":34,"force":-37.0182},{"to":126,"from":35,"force":-38.138},{"to":39,"from":36,"force":-39.6482},{"to":40,"from":36,"force":-39.74},{"to":65,"from":36,"force":-38.2424},{"to":119,"from":36,"force":-36.9178},{"to":143,"from":36,"force":-37.283},{"to":146,"from":36,"force":-36.1798},{"to":148,"from":36,"force":-37.5659},{"to":160,"from":36,"force":-36.7393},{"to":127,"from":37,"force":-37.3341},{"to":154,"from":38,"force":-38.7535},{"to":163,"from":38,"force":-34.7648},{"to":64,"from":39,"force":-37.9069},{"to":261,"from":40,"force":-38.5111},{"to":295,"from":41,"force":-38.7165},{"to":320,"from":41,"force":-38.6333},{"to":321,"from":41,"force":-38.3255},{"to":218,"from":42,"force":-38.7425},{"to":265,"from":43,"force":-38.334},{"to":266,"from":43,"force":-38.424},{"to":323,"from":43,"force":-38.221},{"to":324,"from":43,"force":-38.2792},{"to":326,"from":43,"force":-37.6895},{"to":352,"from":43,"force":-38.3623},{"to":219,"from":44,"force":-38.2346},{"to":110,"from":45,"force":-37.2751},{"to":53,"from":46,"force":-38.5423},{"to":54,"from":46,"force":-37.8363},{"to":55,"from":46,"force":-38.2282},{"to":56,"from":46,"force":-38.5273},{"to":57,"from":46,"force":-38.5732},{"to":58,"from":46,"force":-38.1426},{"to":181,"from":46,"force":-38.9606},{"to":182,"from":46,"force":-39.0591},{"to":50,"from":47,"force":-36.3055},{"to":73,"from":48,"force":-37.421},{"to":98,"from":49,"force":-37.2298},{"to":107,"from":49,"force":-37.348},{"to":194,"from":49,"force":-37.4066},{"to":95,"from":50,"force":-38.4935},{"to":92,"from":51,"force":-37.3227},{"to":125,"from":51,"force":-38.3463},{"to":64,"from":52,"force":-37.7572},{"to":63,"from":53,"force":-37.0342},{"to":181,"from":54,"force":-38.6606},{"to":239,"from":54,"force":-37.2455},{"to":184,"from":55,"force":-37.5631},{"to":181,"from":56,"force":-38.9759},{"to":59,"from":57,"force":-37.2369},{"to":74,"from":58,"force":-36.3961},{"to":81,"from":58,"force":-37.0929},{"to":61,"from":59,"force":-37.8965},{"to":62,"from":59,"force":-36.8741},{"to":81,"from":60,"force":-37.6156},{"to":181,"from":61,"force":-39.2365},{"to":63,"from":62,"force":-37.0721},{"to":75,"from":63,"force":-36.374},{"to":67,"from":64,"force":-38.2736},{"to":66,"from":65,"force":-38.4722},{"to":260,"from":66,"force":-37.2919},{"to":261,"from":66,"force":-38.7052},{"to":282,"from":66,"force":-36.7919},{"to":261,"from":67,"force":-38.4831},{"to":270,"from":67,"force":-38.3237},{"to":260,"from":68,"force":-37.003},{"to":70,"from":69,"force":-37.7565},{"to":270,"from":69,"force":-37.8801},{"to":310,"from":69,"force":-37.6646},{"to":285,"from":70,"force":-37.2675},{"to":115,"from":71,"force":-37.2832},{"to":185,"from":71,"force":-25.8155},{"to":197,"from":71,"force":-36.936},{"to":261,"from":71,"force":-38.2822},{"to":268,"from":71,"force":-37.9481},{"to":178,"from":72,"force":-38.3175},{"to":89,"from":73,"force":-26.9466},{"to":97,"from":73,"force":-37.3665},{"to":114,"from":73,"force":-37.5593},{"to":178,"from":73,"force":-38.1696},{"to":181,"from":74,"force":-38.7774},{"to":220,"from":74,"force":-26.2436},{"to":77,"from":75,"force":-36.7803},{"to":83,"from":75,"force":-36.9454},{"to":181,"from":75,"force":-39.0499},{"to":183,"from":75,"force":-37.7846},{"to":78,"from":76,"force":-36.7187},{"to":183,"from":76,"force":-37.5552},{"to":79,"from":77,"force":-37.0118},{"to":82,"from":78,"force":-36.94},{"to":87,"from":78,"force":-36.8643},{"to":181,"from":78,"force":-38.687},{"to":80,"from":79,"force":-36.869},{"to":100,"from":79,"force":-36.9491},{"to":84,"from":80,"force":-36.6043},{"to":122,"from":80,"force":-36.7762},{"to":181,"from":80,"force":-39.0999},{"to":100,"from":81,"force":-36.5339},{"to":184,"from":82,"force":-38.1094},{"to":224,"from":82,"force":-38.1211},{"to":238,"from":82,"force":-38.1664},{"to":85,"from":83,"force":-37.1181},{"to":86,"from":83,"force":-36.7726},{"to":238,"from":84,"force":-37.9827},{"to":249,"from":85,"force":-38.1037},{"to":224,"from":86,"force":-38.021},{"to":88,"from":87,"force":-38.0783},{"to":249,"from":87,"force":-38.3474},{"to":101,"from":88,"force":-37.679},{"to":90,"from":89,"force":-36.576},{"to":293,"from":89,"force":-38.7409},{"to":149,"from":90,"force":-26.5549},{"to":293,"from":90,"force":-38.8757},{"to":116,"from":91,"force":-37.0351},{"to":116,"from":92,"force":-37.5032},{"to":117,"from":92,"force":-37.5747},{"to":124,"from":92,"force":-36.8639},{"to":144,"from":92,"force":-36.2298},{"to":109,"from":93,"force":-37.9971},{"to":117,"from":93,"force":-37.6793},{"to":133,"from":93,"force":-37.1494},{"to":141,"from":93,"force":-36.5718},{"to":98,"from":94,"force":-36.3827},{"to":274,"from":95,"force":-37.4329},{"to":194,"from":96,"force":-37.5607},{"to":102,"from":97,"force":-35.8803},{"to":102,"from":98,"force":-36.8268},{"to":108,"from":98,"force":-36.9907},{"to":180,"from":98,"force":-37.6171},{"to":180,"from":99,"force":-37.8891},{"to":106,"from":100,"force":-36.4952},{"to":106,"from":101,"force":-36.3018},{"to":277,"from":102,"force":-36.4105},{"to":112,"from":103,"force":-37.7421},{"to":177,"from":103,"force":-38.1605},{"to":105,"from":104,"force":-36.6707},{"to":114,"from":104,"force":-36.9769},{"to":275,"from":105,"force":-36.0376},{"to":221,"from":106,"force":-37.8645},{"to":114,"from":107,"force":-36.873},{"to":195,"from":108,"force":-36.1964},{"to":128,"from":109,"force":-37.7696},{"to":145,"from":109,"force":-36.1879},{"to":126,"from":110,"force":-37.5136},{"to":276,"from":111,"force":-36.3438},{"to":113,"from":112,"force":-37.0974},{"to":194,"from":112,"force":-37.8013},{"to":180,"from":113,"force":-37.9656},{"to":180,"from":114,"force":-37.7842},{"to":259,"from":115,"force":-38.159},{"to":120,"from":116,"force":-37.5311},{"to":142,"from":117,"force":-36.4729},{"to":137,"from":118,"force":-36.602},{"to":137,"from":119,"force":-36.8126},{"to":132,"from":120,"force":-36.9775},{"to":158,"from":120,"force":-39.2718},{"to":210,"from":120,"force":-39.8158},{"to":259,"from":120,"force":-38.4128},{"to":355,"from":120,"force":-39.6473},{"to":125,"from":121,"force":-38.1321},{"to":123,"from":122,"force":-38.1115},{"to":223,"from":122,"force":-38.1384},{"to":236,"from":122,"force":-38.4911},{"to":249,"from":122,"force":-38.4725},{"to":222,"from":123,"force":-38.3778},{"to":238,"from":123,"force":-38.2014},{"to":248,"from":123,"force":-38.4123},{"to":129,"from":124,"force":-38.04},{"to":137,"from":124,"force":-37.0091},{"to":159,"from":124,"force":-36.5881},{"to":226,"from":125,"force":-37.5292},{"to":225,"from":126,"force":-37.4165},{"to":128,"from":127,"force":-37.4384},{"to":376,"from":128,"force":-37.6833},{"to":134,"from":129,"force":-36.9346},{"to":138,"from":129,"force":-37.3193},{"to":139,"from":129,"force":-36.6118},{"to":199,"from":129,"force":-36.8123},{"to":225,"from":129,"force":-37.7599},{"to":140,"from":130,"force":-37.0776},{"to":145,"from":131,"force":-36.1504},{"to":140,"from":132,"force":-37.2653},{"to":142,"from":132,"force":-36.5901},{"to":271,"from":132,"force":-37.2217},{"to":217,"from":133,"force":-35.8991},{"to":333,"from":134,"force":-36.6524},{"to":187,"from":135,"force":-36.8843},{"to":164,"from":136,"force":-36.3967},{"to":330,"from":137,"force":-36.8542},{"to":355,"from":138,"force":-36.7271},{"to":196,"from":139,"force":-37.3638},{"to":143,"from":140,"force":-37.0115},{"to":200,"from":141,"force":-36.1464},{"to":147,"from":142,"force":-36.4834},{"to":148,"from":142,"force":-36.7265},{"to":214,"from":143,"force":-36.7407},{"to":210,"from":144,"force":-36.2453},{"to":164,"from":145,"force":-36.6633},{"to":225,"from":145,"force":-37.6791},{"to":161,"from":146,"force":-36.5383},{"to":148,"from":147,"force":-37.5183},{"to":207,"from":148,"force":-37.3642},{"to":215,"from":148,"force":-36.8764},{"to":150,"from":149,"force":-35.5561},{"to":151,"from":149,"force":-35.9304},{"to":155,"from":149,"force":-38.8215},{"to":155,"from":150,"force":-38.7635},{"to":152,"from":151,"force":-37.5083},{"to":153,"from":151,"force":-38.1491},{"to":155,"from":151,"force":-38.6969},{"to":157,"from":152,"force":-38.4615},{"to":231,"from":152,"force":-37.2877},{"to":155,"from":153,"force":-39.1751},{"to":189,"from":153,"force":-37.4752},{"to":229,"from":153,"force":-37.9217},{"to":190,"from":154,"force":-33.0732},{"to":230,"from":154,"force":-31.9374},{"to":272,"from":154,"force":-37.5558},{"to":156,"from":155,"force":-38.7266},{"to":235,"from":155,"force":-38.1654},{"to":157,"from":156,"force":-37.2927},{"to":193,"from":157,"force":-37.9779},{"to":161,"from":158,"force":-36.6188},{"to":284,"from":158,"force":-39.404},{"to":289,"from":158,"force":-39.3903},{"to":290,"from":158,"force":-39.8231},{"to":203,"from":159,"force":-37.0243},{"to":162,"from":160,"force":-36.9011},{"to":202,"from":160,"force":-36.9064},{"to":214,"from":160,"force":-37.2338},{"to":217,"from":161,"force":-36.6441},{"to":187,"from":162,"force":-36.7542},{"to":201,"from":162,"force":-36.6343},{"to":272,"from":163,"force":-38.1057},{"to":188,"from":164,"force":-36.3902},{"to":205,"from":164,"force":-36.7034},{"to":171,"from":165,"force":-38.0981},{"to":171,"from":166,"force":-37.8663},{"to":172,"from":166,"force":-37.8311},{"to":170,"from":167,"force":-37.919},{"to":174,"from":168,"force":-38.2745},{"to":175,"from":168,"force":-38.2187},{"to":172,"from":169,"force":-37.5014},{"to":175,"from":170,"force":-38.1755},{"to":176,"from":171,"force":-38.2947},{"to":176,"from":172,"force":-38.3883},{"to":174,"from":173,"force":-38.0866},{"to":179,"from":174,"force":-38.0039},{"to":179,"from":175,"force":-38.0625},{"to":179,"from":176,"force":-34.1482},{"to":273,"from":177,"force":-37.6465},{"to":279,"from":177,"force":-38.224},{"to":240,"from":178,"force":-37.3292},{"to":243,"from":178,"force":-36.7875},{"to":244,"from":178,"force":-37.443},{"to":346,"from":178,"force":-37.679},{"to":182,"from":179,"force":-26.1419},{"to":194,"from":180,"force":-38.5828},{"to":195,"from":180,"force":-38.3843},{"to":277,"from":180,"force":-38.5614},{"to":221,"from":181,"force":-38.1519},{"to":241,"from":182,"force":-38.5175},{"to":184,"from":183,"force":-37.3487},{"to":237,"from":184,"force":-38.035},{"to":262,"from":185,"force":-37.3223},{"to":296,"from":185,"force":-36.4002},{"to":204,"from":186,"force":-36.6121},{"to":209,"from":186,"force":-36.2026},{"to":211,"from":186,"force":-36.4049},{"to":272,"from":186,"force":-37.5428},{"to":200,"from":187,"force":-37.7819},{"to":213,"from":187,"force":-36.9105},{"to":210,"from":188,"force":-37.0146},{"to":191,"from":189,"force":-37.8477},{"to":272,"from":190,"force":-37.3277},{"to":192,"from":191,"force":-37.9854},{"to":232,"from":191,"force":-37.7308},{"to":233,"from":192,"force":-37.5761},{"to":233,"from":193,"force":-37.6918},{"to":275,"from":194,"force":-38.383},{"to":278,"from":194,"force":-38.8445},{"to":274,"from":195,"force":-37.588},{"to":377,"from":196,"force":-37.3248},{"to":289,"from":197,"force":-36.9108},{"to":328,"from":198,"force":-37.8905},{"to":335,"from":199,"force":-37.4073},{"to":205,"from":200,"force":-37.0156},{"to":355,"from":200,"force":-37.3236},{"to":206,"from":201,"force":-37.4986},{"to":286,"from":202,"force":-37.1437},{"to":375,"from":203,"force":-37.425},{"to":336,"from":204,"force":-34.7944},{"to":210,"from":205,"force":-37.2875},{"to":212,"from":205,"force":-36.9795},{"to":210,"from":206,"force":-37.9178},{"to":208,"from":207,"force":-37.1727},{"to":338,"from":207,"force":-37.3031},{"to":335,"from":208,"force":-36.8749},{"to":336,"from":209,"force":-33.907},{"to":217,"from":210,"force":-37.2556},{"to":284,"from":210,"force":-39.8867},{"to":289,"from":210,"force":-39.6758},{"to":290,"from":210,"force":-40.053},{"to":272,"from":211,"force":-38.6034},{"to":355,"from":212,"force":-37.6472},{"to":288,"from":213,"force":-37.4432},{"to":216,"from":214,"force":-37.3093},{"to":291,"from":214,"force":-37.4989},{"to":227,"from":215,"force":-38.0016},{"to":332,"from":215,"force":-37.6749},{"to":255,"from":216,"force":-37.5488},{"to":288,"from":216,"force":-37.6647},{"to":227,"from":217,"force":-38.2639},{"to":228,"from":217,"force":-37.7191},{"to":334,"from":217,"force":-37.9292},{"to":258,"from":218,"force":-38.7171},{"to":320,"from":219,"force":-38.486},{"to":350,"from":219,"force":-37.8148},{"to":246,"from":220,"force":-36.8624},{"to":237,"from":221,"force":-38.3486},{"to":237,"from":222,"force":-38.416},{"to":237,"from":223,"force":-37.793},{"to":237,"from":224,"force":-38.3583},{"to":245,"from":224,"force":-37.0663},{"to":333,"from":225,"force":-37.5138},{"to":330,"from":226,"force":-37.7384},{"to":331,"from":226,"force":-38.2456},{"to":333,"from":226,"force":-38.3295},{"to":379,"from":226,"force":-38.4247},{"to":330,"from":227,"force":-36.9043},{"to":334,"from":228,"force":-37.4141},{"to":234,"from":229,"force":-37.6473},{"to":336,"from":230,"force":-39.1597},{"to":301,"from":231,"force":-39.0008},{"to":301,"from":232,"force":-39.5763},{"to":234,"from":233,"force":-38.1641},{"to":250,"from":234,"force":-25.9899},{"to":297,"from":234,"force":-39.4256},{"to":300,"from":234,"force":-39.8014},{"to":301,"from":234,"force":-39.3917},{"to":297,"from":235,"force":-38.7341},{"to":300,"from":235,"force":-39.0661},{"to":237,"from":236,"force":-37.9691},{"to":303,"from":237,"force":-37.7023},{"to":242,"from":238,"force":-37.0915},{"to":303,"from":239,"force":-36.8531},{"to":302,"from":240,"force":-36.5227},{"to":242,"from":241,"force":-37.9036},{"to":249,"from":241,"force":-38.2508},{"to":305,"from":241,"force":-37.5542},{"to":247,"from":242,"force":-37.203},{"to":346,"from":243,"force":-35.7343},{"to":346,"from":244,"force":-36.8552},{"to":247,"from":245,"force":-37.9579},{"to":347,"from":246,"force":-37.4571},{"to":303,"from":247,"force":-37.7055},{"to":348,"from":247,"force":-37.8296},{"to":304,"from":248,"force":-38.1217},{"to":304,"from":249,"force":-38.1464},{"to":251,"from":250,"force":-38.1786},{"to":252,"from":250,"force":-38.1207},{"to":253,"from":251,"force":-39.1084},{"to":253,"from":252,"force":-38.684},{"to":254,"from":253,"force":-38.8084},{"to":300,"from":254,"force":-26.8498},{"to":259,"from":255,"force":-37.7663},{"to":323,"from":256,"force":-38.1761},{"to":325,"from":256,"force":-37.0811},{"to":263,"from":257,"force":-38.7313},{"to":267,"from":257,"force":-38.5472},{"to":295,"from":258,"force":-38.6424},{"to":264,"from":259,"force":-39.1764},{"to":269,"from":259,"force":-38.4155},{"to":283,"from":259,"force":-36.7102},{"to":264,"from":260,"force":-39.0305},{"to":307,"from":260,"force":-38.5543},{"to":264,"from":261,"force":-38.1566},{"to":298,"from":262,"force":-37.2861},{"to":299,"from":262,"force":-36.9526},{"to":265,"from":263,"force":-37.5284},{"to":311,"from":264,"force":-37.7604},{"to":368,"from":265,"force":-37.5673},{"to":295,"from":266,"force":-38.5604},{"to":309,"from":266,"force":-38.183},{"to":317,"from":267,"force":-37.1229},{"to":322,"from":267,"force":-37.2628},{"to":307,"from":268,"force":-37.6741},{"to":270,"from":269,"force":-37.3037},{"to":307,"from":270,"force":-37.6319},{"to":280,"from":271,"force":-37.7481},{"to":281,"from":271,"force":-38.1739},{"to":285,"from":271,"force":-38.2768},{"to":306,"from":271,"force":-37.911},{"to":336,"from":272,"force":-38.2384},{"to":274,"from":273,"force":-38.1883},{"to":276,"from":274,"force":-38.5711},{"to":279,"from":274,"force":-38.3594},{"to":346,"from":274,"force":-39.189},{"to":302,"from":275,"force":-39.0604},{"to":302,"from":276,"force":-39.4345},{"to":346,"from":276,"force":-38.7998},{"to":302,"from":277,"force":-39.4017},{"to":346,"from":277,"force":-38.7945},{"to":302,"from":278,"force":-39.0175},{"to":302,"from":279,"force":-38.9715},{"to":284,"from":280,"force":-37.4101},{"to":316,"from":281,"force":-37.078},{"to":306,"from":282,"force":-36.9692},{"to":284,"from":283,"force":-37.3795},{"to":286,"from":284,"force":-37.7763},{"to":287,"from":284,"force":-37.3949},{"to":291,"from":284,"force":-37.7697},{"to":355,"from":284,"force":-39.763},{"to":288,"from":285,"force":-37.7228},{"to":289,"from":285,"force":-37.7314},{"to":292,"from":285,"force":-37.1153},{"to":382,"from":286,"force":-38.066},{"to":382,"from":287,"force":-37.6246},{"to":338,"from":288,"force":-37.8826},{"to":355,"from":289,"force":-39.707},{"to":338,"from":290,"force":-38.87},{"to":355,"from":290,"force":-40.0889},{"to":380,"from":290,"force":-39.1195},{"to":335,"from":291,"force":-39.238},{"to":361,"from":291,"force":-38.7313},{"to":380,"from":291,"force":-38.6695},{"to":316,"from":292,"force":-38.482},{"to":363,"from":292,"force":-38.4741},{"to":294,"from":293,"force":-38.7919},{"to":339,"from":293,"force":-38.8847},{"to":340,"from":293,"force":-38.8222},{"to":342,"from":293,"force":-38.8037},{"to":343,"from":293,"force":-38.3354},{"to":345,"from":293,"force":-38.8833},{"to":357,"from":293,"force":-38.7345},{"to":360,"from":293,"force":-38.7556},{"to":341,"from":294,"force":-38.5145},{"to":342,"from":294,"force":-39.113},{"to":344,"from":294,"force":-38.977},{"to":356,"from":294,"force":-38.8779},{"to":354,"from":295,"force":-38.3164},{"to":298,"from":296,"force":-35.7913},{"to":300,"from":297,"force":-35.4544},{"to":299,"from":298,"force":-36.0889},{"to":316,"from":299,"force":-25.8251},{"to":301,"from":300,"force":-33.6986},{"to":368,"from":301,"force":-25.8793},{"to":346,"from":302,"force":-37.0591},{"to":304,"from":303,"force":-37.2608},{"to":348,"from":304,"force":-37.9653},{"to":348,"from":305,"force":-36.4277},{"to":318,"from":306,"force":-37.955},{"to":363,"from":306,"force":-38.4195},{"to":314,"from":307,"force":-37.4585},{"to":315,"from":307,"force":-37.7539},{"to":365,"from":307,"force":-38.089},{"to":316,"from":308,"force":-36.4332},{"to":312,"from":309,"force":-38.1661},{"to":315,"from":310,"force":-37.1679},{"to":316,"from":311,"force":-37.4529},{"to":322,"from":312,"force":-38.1149},{"to":366,"from":313,"force":-36.6405},{"to":361,"from":314,"force":-37.7077},{"to":361,"from":315,"force":-37.8033},{"to":319,"from":316,"force":-38.6969},{"to":329,"from":316,"force":-38.1863},{"to":327,"from":317,"force":-38.5623},{"to":373,"from":317,"force":-38.622},{"to":382,"from":318,"force":-38.76},{"to":362,"from":319,"force":-38.3498},{"to":364,"from":319,"force":-38.5505},{"to":369,"from":320,"force":-37.0368},{"to":351,"from":321,"force":-38.247},{"to":353,"from":321,"force":-38.1768},{"to":367,"from":321,"force":-38.3284},{"to":368,"from":321,"force":-38.7043},{"to":371,"from":321,"force":-38.7413},{"to":373,"from":321,"force":-39.2249},{"to":323,"from":322,"force":-37.9919},{"to":325,"from":323,"force":-36.8768},{"to":373,"from":324,"force":-37.9109},{"to":328,"from":325,"force":-37.5131},{"to":369,"from":326,"force":-36.8225},{"to":328,"from":327,"force":-37.2855},{"to":371,"from":328,"force":-38.626},{"to":365,"from":329,"force":-38.7729},{"to":366,"from":329,"force":-38.6502},{"to":380,"from":329,"force":-38.6994},{"to":355,"from":330,"force":-37.7988},{"to":332,"from":331,"force":-37.007},{"to":335,"from":332,"force":-38.1138},{"to":337,"from":333,"force":-38.48},{"to":380,"from":334,"force":-38.488},{"to":378,"from":335,"force":-38.6604},{"to":382,"from":335,"force":-38.7435},{"to":382,"from":336,"force":-26.0749},{"to":338,"from":337,"force":-38.9312},{"to":380,"from":337,"force":-38.8572},{"to":381,"from":337,"force":-38.758},{"to":382,"from":337,"force":-39.0088},{"to":361,"from":338,"force":-39.7393},{"to":375,"from":338,"force":-39.0365},{"to":376,"from":338,"force":-39.2504},{"to":378,"from":338,"force":-39.4002},{"to":379,"from":338,"force":-38.8352},{"to":358,"from":339,"force":-38.5255},{"to":357,"from":340,"force":-38.9566},{"to":358,"from":341,"force":-38.6122},{"to":345,"from":342,"force":-38.9615},{"to":357,"from":342,"force":-38.8326},{"to":359,"from":343,"force":-38.7362},{"to":345,"from":344,"force":-38.782},{"to":360,"from":344,"force":-39.5048},{"to":359,"from":345,"force":-39.4633},{"to":358,"from":346,"force":-27.0175},{"to":376,"from":347,"force":-27.3591},{"to":378,"from":348,"force":-27.0917},{"to":368,"from":349,"force":-38.2299},{"to":368,"from":350,"force":-38.0304},{"to":371,"from":351,"force":-37.9752},{"to":383,"from":352,"force":-38.9704},{"to":383,"from":353,"force":-38.3059},{"to":369,"from":354,"force":-38.5967},{"to":370,"from":354,"force":-38.8244},{"to":372,"from":354,"force":-39.2405},{"to":373,"from":354,"force":-38.7061},{"to":374,"from":354,"force":-39.4755},{"to":383,"from":354,"force":-39.2383},{"to":361,"from":355,"force":-40.4279},{"to":377,"from":355,"force":-39.0082},{"to":382,"from":355,"force":-39.2831},{"to":360,"from":356,"force":-39.5621},{"to":359,"from":357,"force":-39.3496},{"to":359,"from":358,"force":-39.1403},{"to":360,"from":358,"force":-38.7387},{"to":360,"from":359,"force":-39.9885},{"to":368,"from":360,"force":-27.8241},{"to":380,"from":361,"force":-39.8898},{"to":381,"from":361,"force":-39.2848},{"to":382,"from":361,"force":-38.9727},{"to":381,"from":362,"force":-39.3205},{"to":382,"from":362,"force":-38.9544},{"to":381,"from":363,"force":-39.5859},{"to":382,"from":363,"force":-39.2729},{"to":381,"from":364,"force":-39.886},{"to":382,"from":364,"force":-39.6271},{"to":380,"from":365,"force":-40.3483},{"to":381,"from":365,"force":-39.7978},{"to":382,"from":365,"force":-39.5581},{"to":380,"from":366,"force":-40.2598},{"to":381,"from":366,"force":-39.6923},{"to":382,"from":366,"force":-39.4685},{"to":374,"from":367,"force":-38.6513},{"to":374,"from":368,"force":-39.0509},{"to":374,"from":369,"force":-37.3307},{"to":371,"from":370,"force":-37.9245},{"to":374,"from":371,"force":-38.3023},{"to":373,"from":372,"force":-37.1238},{"to":374,"from":373,"force":-37.9472},{"to":383,"from":374,"force":-35.6554},{"to":380,"from":375,"force":-38.9227},{"to":381,"from":375,"force":-38.9372},{"to":382,"from":375,"force":-39.4755},{"to":380,"from":376,"force":-39.1381},{"to":381,"from":376,"force":-39.1594},{"to":382,"from":376,"force":-39.7475},{"to":380,"from":377,"force":-39.7484},{"to":381,"from":377,"force":-39.7016},{"to":382,"from":377,"force":-40.3026},{"to":380,"from":378,"force":-39.2812},{"to":381,"from":378,"force":-39.3106},{"to":382,"from":378,"force":-39.8842},{"to":380,"from":379,"force":-38.6943},{"to":381,"from":379,"force":-38.765},{"to":382,"from":379,"force":-39.3734},{"to":382,"from":380,"force":-38.3808},{"to":382,"from":381,"force":-37.5042},{"to":383,"from":382,"force":-27.4011}]}
